{"neighborhood": "ANDERSONVILLE, RAVENSWOOD","city": "CHICAGO", "addr": "5025 N PAULINA STREET", "zip": "60640", "fed_name": "METHODIST HOSPITAL OF CHICAGO", "state": "IL", "fed_id": 140197, "lat": 41.972367, "lng": -87.670007, "name": "Methodist Hospital of Chicago"}
{"neighborhood": "THE LOOP","city": "OAK LAWN", "addr": "4440 W 95TH STREET", "zip": "60453", "fed_name": "ADVOCATE CHRIST HOSPITAL & MEDICAL CENTER", "state": "IL", "fed_id": 140208, "lat": 41.720221, "lng": -87.733353, "name": "Advocate Christ Medical Center"}
{"neighborhood": "EVANSTON","city": "EVANSTON", "addr": "2650 RIDGE AVE", "zip": "60201", "fed_name": "EVANSTON HOSPITAL", "state": "IL", "fed_id": 140010, "lat": 42.065678, "lng": -87.683201, "name": "Evanston Hospital"}
{"neighborhood": "MELROSE PARK","city": "MELROSE PARK", "addr": "701 WEST NORTH AVE", "zip": "60160", "fed_name": "LOYOLA GOTTLIEB MEMORIAL HOSPITAL", "state": "IL", "fed_id": 140008, "lat": 41.908258, "lng": -87.84282, "name": "Gottlieb Memorial Hospital"}
{"neighborhood": "MARQUETTE PARK","city": "CHICAGO", "addr": "2701 W 68TH STREET", "zip": "60629", "fed_name": "HOLY CROSS HOSPITAL", "state": "IL", "fed_id": 140133, "lat": 41.769181, "lng": -87.692403, "name": "Holy Cross Hospital"}
{"neighborhood": "HARVEY","city": "HARVEY", "addr": "ONE INGALLS DRIVE", "zip": "60426", "fed_name": "INGALLS MEMORIAL HOSPITAL", "state": "IL", "fed_id": 140191, "lat": 41.606955, "lng": -87.659479, "name": "Ingalls Memorial Hospital"}
{"neighborhood": "SOUTH SHORE","city": "CHICAGO", "addr": "7531 S STONY ISLAND AVE", "zip": "60649", "fed_name": "JACKSON PARK HOSPITAL", "state": "IL", "fed_id": 140177, "lat": 41.757434, "lng": -87.585102, "name": "Jackson Park Hosp. Foundation"}
{"neighborhood": "AUSTIN","city": "CHICAGO", "addr": "645 SOUTH CENTRAL AVE", "zip": "60644", "fed_name": "LORETTO HOSPITAL", "state": "IL", "fed_id": 140083, "lat": 41.872147, "lng": -87.763577, "name": "Loretto Hospital"}
{"neighborhood": "EVERGREEN PARK","city": "EVERGREEN PARK", "addr": "2800 W 95TH ST", "zip": "60805", "fed_name": "LITTLE COMPANY OF MARY HOSPITAL", "state": "IL", "fed_id": 140179, "lat": 41.720841, "lng": -87.691984, "name": "Little Company of Mary Hospital and Health Care Ce"}
{"neighborhood": "NEAR SOUTH SIDE","city": "CHICAGO", "addr": "2525 S MICHIGAN AVE", "zip": "60616", "fed_name": "MERCY HOSPITAL AND MEDICAL CENTER", "state": "IL", "fed_id": 140158, "lat": 41.846786, "lng": -87.621304, "name": "Mercy Hospital & Medical Center"}
{"neighborhood": "LAWNDALE","city": "CHICAGO", "addr": "15TH STREET AT CALIFORNIA", "zip": "60608", "fed_name": "MT SINAI HOSPITAL MEDICAL CENTER", "state": "IL", "fed_id": 140018, "lat": 41.860615, "lng": -87.694833, "name": "Mount Sinai Hospital Medical Center"}
{"neighborhood": "ARLINGTON HEIGHTS","city": "ARLINGTON HEIGH", "addr": "800 W CENTRAL ROAD", "zip": "60005", "fed_name": "NORTHWEST COMMUNITY HOSPITAL", "state": "IL", "fed_id": 140252, "lat": 42.066586, "lng": -87.993107, "name": "Northwest Community Hospital"}
{"neighborhood": "SOUTH SHORE","city": "CHICAGO", "addr": "5645 W ADDISON", "zip": "60634", "fed_name": "OUR LADY OF THE RESURRECTION MED CTR", "state": "IL", "fed_id": 140251, "lat": 41.945468, "lng": -87.76782, "name": "Our Lady of Resurrection Medical Center"}
{"neighborhood": "OAK PARK","city": "OAK PARK", "addr": "520 S MAPLE AVE", "zip": "60304", "fed_name": "RUSH OAK PARK HOSPITAL", "state": "IL", "fed_id": 140063, "lat": 41.879329, "lng": -87.803852, "name": "Rush Oak Park Hospital"}
{"neighborhood": "UNIVERSITY VILLAGE","city": "CHICAGO", "addr": "1653 WEST CONGRESS PARKWAY", "zip": "60612", "fed_name": "RUSH UNIVERSITY MEDICAL CENTER", "state": "IL", "fed_id": 140119, "lat": 41.874498, "lng": -87.669947, "name": "Rush University Medical Center"}
{"neighborhood": "NORWOOD PARK","city": "CHICAGO", "addr": "7435 W TALCOTT AVENUE", "zip": "60631", "fed_name": "RESURRECTION MEDICAL CENTER", "state": "IL", "fed_id": 140117, "lat": 41.987129, "lng": -87.813838, "name": "Resurrection Medical Center"}
{"neighborhood": "ROSELAND","city": "CHICAGO", "addr": "45 W 111TH STREET", "zip": "60628", "fed_name": "ROSELAND COMMUNITY HOSPITAL", "state": "IL", "fed_id": 140068, "lat": 41.692232, "lng": -87.625055, "name": "Roseland Community Hospital"}
{"neighborhood": "SKOKIE","city": "SKOKIE", "addr": "9600 GROSS POINT ROAD", "zip": "60076", "fed_name": "SKOKIE HOSPITAL", "state": "IL", "fed_id": 140051, "lat": 42.055847, "lng": -87.739315, "name": "Skokie Hospital"}
{"neighborhood": "ELK GROVE VILLA","city": "ELK GROVE VILLA", "addr": "800 W BIESTERFIELD RD", "zip": "60007", "fed_name": "ALEXIAN BROTHERS MEDICAL CENTER", "state": "IL", "fed_id": 140258, "lat": 42.00347, "lng": -88.016343, "name": "Alexian Brothers Medical Center"}
{"neighborhood": "ENGLEWOOD","city": "CHICAGO", "addr": "326 W 64TH ST", "zip": "60621", "fed_name": "ST BERNARD HOSPITAL", "state": "IL", "fed_id": 140103, "lat": 41.778546, "lng": -87.633054, "name": "St. Bernard Hospital"}
{"neighborhood": "BELLEVILLE","city": "BELLEVILLE", "addr": "211 S THIRD ST", "zip": "62220", "fed_name": "ST ELIZABETH HOSPITAL", "state": "IL", "fed_id": 140187, "lat": 41.90756, "lng": -87.685477, "name": "St. Elizabeth's Hospital"}
{"neighborhood": "EVANSTON","city": "EVANSTON", "addr": "355 RIDGE AVE", "zip": "60202", "fed_name": "RHC ST FRANCIS HOSPITAL", "state": "IL", "fed_id": 140080, "lat": 42.02406, "lng": -87.685162, "name": "St. Francis Hospital"}
{"neighborhood": "LAKEVIEW","city": "CHICAGO", "addr": "2900 NORTH LAKE SHORE DRIVE", "zip": "60657", "fed_name": "SAINT JOSEPH HOSPITAL", "state": "IL", "fed_id": 140224, "lat": 41.933737, "lng": -87.637277, "name": "Saint Joseph Health Centers & Hospital"}
{"neighborhood": "LINCOLN SQUARE","city": "CHICAGO", "addr": "5145 N CALIFORNIA AVE", "zip": "60625", "fed_name": "SWEDISH COVENANT HOSPITAL", "state": "IL", "fed_id": 140114, "lat": 41.975085, "lng": -87.697916, "name": "Swedish Covenant Hospital"}
{"neighborhood": "UNIVERSITY VILLAGE","city": "CHICAGO", "addr": "1740 WEST TAYLOR ST SUITE 1400", "zip": "60612", "fed_name": "UNIVERSITY OF ILLINOIS HOSPITAL", "state": "IL", "fed_id": 140150, "lat": 41.869599, "lng": -87.670869, "name": "University of Illinois Hospital"}
{"neighborhood": "MELROSE PARK","city": "MELROSE PARK", "addr": "1225 LAKE ST", "zip": "60160", "fed_name": "WESTLAKE COMMUNITY HOSPITAL", "state": "IL", "fed_id": 140240, "lat": 41.891646, "lng": -87.848394, "name": "Westlake Community Hospital"}
{"neighborhood": "PALOS HEIGHTS","city": "PALOS HEIGHTS", "addr": "12251 SOUTH 80TH AVENUE", "zip": "60463", "fed_name": "PALOS COMMUNITY HOSPITAL", "state": "IL", "fed_id": 140062, "lat": 41.668287, "lng": -87.815933, "name": "Palos Community Hospital"}
{"neighborhood": "NEAR NORTH SIDE, RIVER EAST","city": "CHICAGO", "addr": "251 E HURON ST", "zip": "60611", "fed_name": "NORTHWESTERN MEMORIAL HOSPITAL", "state": "IL", "fed_id": 140281, "lat": 41.894623, "lng": -87.621524, "name": "Northwestern Memorial Hospital"}
{"neighborhood": "SOUTH CHICAGO","city": "CHICAGO", "addr": "8012 SOUTH CRANDON AVENUE", "zip": "60617", "fed_name": "SOUTH SHORE HOSPITAL", "state": "IL", "fed_id": 140181, "lat": 41.749488, "lng": -87.5692, "name": "South Shore Hospital"}
{"neighborhood": "HYDE PARK","city": "CHICAGO", "addr": "5841 SOUTH MARYLAND", "zip": "60637", "fed_name": "THE UNIVERSITY OF CHICAGO MEDICAL CENTER", "state": "IL", "fed_id": 140088, "lat": 41.788321, "lng": -87.602431, "name": "University Of Chicago Medical Center"}
{"neighborhood": "HUMBOLDT PARK","city": "CHICAGO", "addr": "3240 W FRANKLIN BLVD", "zip": "60624", "fed_name": "SACRED HEART HOSPITAL", "state": "IL", "fed_id": 140151, "lat": 41.890525, "lng": -87.708036, "name": "Sacred Heart Hospital"}
{"neighborhood": "CALUMET HEIGHTS","city": "CHICAGO", "addr": "2320 E 93RD ST", "zip": "60617", "fed_name": "ADVOCATE TRINITY HOSPITAL", "state": "IL", "fed_id": 140048, "lat": 41.726895, "lng": -87.566806, "name": "Trinity Hospital"}
{"neighborhood": "LAWNDALE","city": "CHICAGO", "addr": "2875 WEST 19TH STREET", "zip": "60623", "fed_name": "SAINT ANTHONY HOSPITAL", "state": "IL", "fed_id": 140095, "lat": 41.855171, "lng": -87.698147, "name": "St. Anthony Hospital"}
{"neighborhood": "MAYWOOD","city": "MAYWOOD", "addr": "2160 S 1ST AVENUE", "zip": "60153", "fed_name": "LOYOLA UNIVERSITY MEDICAL CENTER", "state": "IL", "fed_id": 140276, "lat": 41.86027, "lng": -87.8347, "name": "Loyola University Hospital"}
{"neighborhood": "HAZEL CREST","city": "HAZEL CREST", "addr": "17800 S KEDZIE AVE", "zip": "60429", "fed_name": "ADVOCATE SOUTH SUBURBAN HOSPITAL", "state": "IL", "fed_id": 140250, "lat": 41.566482, "lng": -87.694336, "name": "Advocate South Suburban Hospital"}
{"neighborhood": "PARK RIDGE","city": "PARK RIDGE", "addr": "1775 DEMPSTER ST", "zip": "60068", "fed_name": "ADVOCATE LUTHERAN GENERAL HOSPITAL", "state": "IL", "fed_id": 140223, "lat": 42.039719, "lng": -87.849801, "name": "Advocate Lutheran General Hospital"}
{"neighborhood": "HOFFMAN ESTATES","city": "HOFFMAN ESTATES", "addr": "1555 N BARRINGTON RD", "zip": "60194", "fed_name": "ST ALEXIUS MEDICAL CENTER", "state": "IL", "fed_id": 140290, "lat": 42.051218, "lng": -88.144509, "name": "St. Alexius Medical Center"}
{"neighborhood": "LA GRANGE","city": "LA GRANGE", "addr": "5101 S WILLOW SPRINGS RD", "zip": "60525", "fed_name": "ADVENTIST LA GRANGE MEMORIAL HOSPITAL", "state": "IL", "fed_id": 140065, "lat": 41.797346, "lng": -87.88847, "name": "Advocate LaGrange Memorial Hospital"}
{"neighborhood": "LAKEVIEW","city": "CHICAGO", "addr": "836 WEST WELLINGTON AVENUE", "zip": "60657", "fed_name": "ADVOCATE ILLINOIS MASONIC MEDICAL CENTER", "state": "IL", "fed_id": 140182, "lat": 41.936824, "lng": -87.651365, "name": "Advocate Illinois Masonic Medical Center"}
{"neighborhood": "BLUE ISLAND","city": "BLUE ISLAND", "addr": "12935 S GREGORY", "zip": "60406", "fed_name": "METROSOUTH MEDICAL CENTER", "state": "IL", "fed_id": 140118, "lat": 41.658995, "lng": -87.678304, "name": "MetroSouth Medical Center"}
{"neighborhood": "UPTOWN","city": "CHICAGO", "addr": "4646 N MARINE DRIVE", "zip": "60640", "fed_name": "LOUIS A WEISS MEMORIAL HOSPITAL", "state": "IL", "fed_id": 140082, "lat": 41.966844, "lng": -87.649613, "name": "Louis A. Weiss Memorial Hospital"}
{"neighborhood": "HUMBOLDT PARK","city": "CHICAGO", "addr": "1044 N FRANCISCO AVE", "zip": "60622", "fed_name": "NORWEGIAN-AMERICAN HOSPITAL", "state": "IL", "fed_id": 140206, "lat": 41.900805, "lng": -87.699686, "name": "Norwegian American Hospital"}
