{"city": "OAK LAWN", "addr": "4440 W 95TH STREET", "zip": "60453", "fed_name": "ADVOCATE CHRIST HOSPITAL & MEDICAL CENTER", "state": "IL", "fed_id": 140208, "lat": 41.95503, "lng": -87.651699, "name": "Thorek Hospital & Med Ctr"}
{"city": "CHICAGO", "addr": "5025 N PAULINA STREET", "zip": "60640", "fed_name": "METHODIST HOSPITAL OF CHICAGO", "state": "IL", "fed_id": 140197, "lat": 41.972367, "lng": -87.670007, "name": "Methodist Hospital of Chicago"}
{"city": "OAK LAWN", "addr": "4440 W 95TH STREET", "zip": "60453", "fed_name": "ADVOCATE CHRIST HOSPITAL & MEDICAL CENTER", "state": "IL", "fed_id": 140208, "lat": 41.720221, "lng": -87.733353, "name": "Advocate Christ Medical Center"}
{"city": "EVANSTON", "addr": "2650 RIDGE AVE", "zip": "60201", "fed_name": "EVANSTON HOSPITAL", "state": "IL", "fed_id": 140010, "lat": 42.065678, "lng": -87.683201, "name": "Evanston Hospital"}
{"city": "MELROSE PARK", "addr": "701 WEST NORTH AVE", "zip": "60160", "fed_name": "LOYOLA GOTTLIEB MEMORIAL HOSPITAL", "state": "IL", "fed_id": 140008, "lat": 41.908258, "lng": -87.84282, "name": "Gottlieb Memorial Hospital"}
{"city": "CHICAGO", "addr": "2701 W 68TH STREET", "zip": "60629", "fed_name": "HOLY CROSS HOSPITAL", "state": "IL", "fed_id": 140133, "lat": 41.769181, "lng": -87.692403, "name": "Holy Cross Hospital"}
{"city": "CHICAGO", "addr": "2701 W 68TH STREET", "zip": "60629", "fed_name": "HOLY CROSS HOSPITAL", "state": "IL", "fed_id": 140133, "lat": 42.056015, "lng": -87.888751, "name": "Holy Family Hospital"}
{"city": "HARVEY", "addr": "ONE INGALLS DRIVE", "zip": "60426", "fed_name": "INGALLS MEMORIAL HOSPITAL", "state": "IL", "fed_id": 140191, "lat": 41.606955, "lng": -87.659479, "name": "Ingalls Memorial Hospital"}
{"city": "CHICAGO", "addr": "7531 S STONY ISLAND AVE", "zip": "60649", "fed_name": "JACKSON PARK HOSPITAL", "state": "IL", "fed_id": 140177, "lat": 41.757434, "lng": -87.585102, "name": "Jackson Park Hosp. Foundation"}
{"city": "CHICAGO", "addr": "645 SOUTH CENTRAL AVE", "zip": "60644", "fed_name": "LORETTO HOSPITAL", "state": "IL", "fed_id": 140083, "lat": 41.872147, "lng": -87.763577, "name": "Loretto Hospital"}
{"city": "EVERGREEN PARK", "addr": "2800 W 95TH ST", "zip": "60805", "fed_name": "LITTLE COMPANY OF MARY HOSPITAL", "state": "IL", "fed_id": 140179, "lat": 41.720841, "lng": -87.691984, "name": "Little Company of Mary Hospital and Health Care Ce"}
{"city": "CHICAGO", "addr": "2525 S MICHIGAN AVE", "zip": "60616", "fed_name": "MERCY HOSPITAL AND MEDICAL CENTER", "state": "IL", "fed_id": 140158, "lat": 41.846786, "lng": -87.621304, "name": "Mercy Hospital & Medical Center"}
{"city": "CHICAGO", "addr": "15TH STREET AT CALIFORNIA", "zip": "60608", "fed_name": "MT SINAI HOSPITAL MEDICAL CENTER", "state": "IL", "fed_id": 140018, "lat": 41.860615, "lng": -87.694833, "name": "Mount Sinai Hospital Medical Center"}
{"city": "ARLINGTON HEIGH", "addr": "800 W CENTRAL ROAD", "zip": "60005", "fed_name": "NORTHWEST COMMUNITY HOSPITAL", "state": "IL", "fed_id": 140252, "lat": 42.066586, "lng": -87.993107, "name": "Northwest Community Hospital"}
{"city": "CHICAGO", "addr": "5645 W ADDISON", "zip": "60634", "fed_name": "OUR LADY OF THE RESURRECTION MED CTR", "state": "IL", "fed_id": 140251, "lat": 41.945468, "lng": -87.76782, "name": "Our Lady of Resurrection Medical Center"}
{"city": "LAKE FOREST", "addr": "660 N WESTMORELAND ROAD", "zip": "60045", "fed_name": "LAKE FOREST HOSPITAL", "state": "IL", "fed_id": 140130, "lat": 41.603253, "lng": -87.736491, "name": "Oak Forest Hospital"}
{"city": "OAK PARK", "addr": "520 S MAPLE AVE", "zip": "60304", "fed_name": "RUSH OAK PARK HOSPITAL", "state": "IL", "fed_id": 140063, "lat": 41.879329, "lng": -87.803852, "name": "Rush Oak Park Hospital"}
{"city": "CHICAGO", "addr": "1653 WEST CONGRESS PARKWAY", "zip": "60612", "fed_name": "RUSH UNIVERSITY MEDICAL CENTER", "state": "IL", "fed_id": 140119, "lat": 41.874498, "lng": -87.669947, "name": "Rush University Medical Center"}
{"city": "CHICAGO", "addr": "7435 W TALCOTT AVENUE", "zip": "60631", "fed_name": "RESURRECTION MEDICAL CENTER", "state": "IL", "fed_id": 140117, "lat": 41.987129, "lng": -87.813838, "name": "Resurrection Medical Center"}
{"city": "CHICAGO", "addr": "45 W 111TH STREET", "zip": "60628", "fed_name": "ROSELAND COMMUNITY HOSPITAL", "state": "IL", "fed_id": 140068, "lat": 41.692232, "lng": -87.625055, "name": "Roseland Community Hospital"}
{"city": "GRANITE CITY", "addr": "2100 MADISON AVENUE", "zip": "62040", "fed_name": "GATEWAY REGIONAL MEDICAL CENTER", "state": "IL", "fed_id": 140125, "lat": 41.862241, "lng": -87.695016, "name": "Schwab Rehabilitation Center"}
{"city": "SKOKIE", "addr": "9600 GROSS POINT ROAD", "zip": "60076", "fed_name": "SKOKIE HOSPITAL", "state": "IL", "fed_id": 140051, "lat": 42.055847, "lng": -87.739315, "name": "Skokie Hospital"}
{"city": "ELK GROVE VILLA", "addr": "800 W BIESTERFIELD RD", "zip": "60007", "fed_name": "ALEXIAN BROTHERS MEDICAL CENTER", "state": "IL", "fed_id": 140258, "lat": 42.00347, "lng": -88.016343, "name": "Alexian Brothers Medical Center"}
{"city": "CHICAGO", "addr": "326 W 64TH ST", "zip": "60621", "fed_name": "ST BERNARD HOSPITAL", "state": "IL", "fed_id": 140103, "lat": 41.778546, "lng": -87.633054, "name": "St. Bernard Hospital"}
{"city": "BELLEVILLE", "addr": "211 S THIRD ST", "zip": "62220", "fed_name": "ST ELIZABETH HOSPITAL", "state": "IL", "fed_id": 140187, "lat": 41.90756, "lng": -87.685477, "name": "St. Elizabeth's Hospital"}
{"city": "EVANSTON", "addr": "355 RIDGE AVE", "zip": "60202", "fed_name": "RHC ST FRANCIS HOSPITAL", "state": "IL", "fed_id": 140080, "lat": 42.02406, "lng": -87.685162, "name": "St. Francis Hospital"}
{"city": "MORRIS", "addr": "150 W HIGH ST", "zip": "60450", "fed_name": "MORRIS HOSPITAL & HEALTHCARE CENTERS", "state": "IL", "fed_id": 140101, "lat": 41.505276, "lng": -87.640928, "name": "St. James Hospital & Health Center"}
{"city": "CHICAGO", "addr": "2900 NORTH LAKE SHORE DRIVE", "zip": "60657", "fed_name": "SAINT JOSEPH HOSPITAL", "state": "IL", "fed_id": 140224, "lat": 41.933737, "lng": -87.637277, "name": "Saint Joseph Health Centers & Hospital"}
{"city": "SPRING VALLEY", "addr": "600 E 1ST ST", "zip": "61362", "fed_name": "ST MARGARETS HOSPITAL", "state": "IL", "fed_id": 140143, "lat": 41.902549, "lng": -87.68335, "name": "Saint Mary Of Nazareth Hospital"}
{"city": "CHICAGO", "addr": "5145 N CALIFORNIA AVE", "zip": "60625", "fed_name": "SWEDISH COVENANT HOSPITAL", "state": "IL", "fed_id": 140114, "lat": 41.975085, "lng": -87.697916, "name": "Swedish Covenant Hospital"}
{"city": "CHICAGO", "addr": "1740 WEST TAYLOR ST SUITE 1400", "zip": "60612", "fed_name": "UNIVERSITY OF ILLINOIS HOSPITAL", "state": "IL", "fed_id": 140150, "lat": 41.869599, "lng": -87.670869, "name": "University of Illinois Hospital"}
{"city": "HAZEL CREST", "addr": "17800 S KEDZIE AVE", "zip": "60429", "fed_name": "ADVOCATE SOUTH SUBURBAN HOSPITAL", "state": "IL", "fed_id": 140250, "lat": 41.891872, "lng": -87.775033, "name": "West Suburban Hospital"}
{"city": "MELROSE PARK", "addr": "1225 LAKE ST", "zip": "60160", "fed_name": "WESTLAKE COMMUNITY HOSPITAL", "state": "IL", "fed_id": 140240, "lat": 41.891646, "lng": -87.848394, "name": "Westlake Community Hospital"}
{"city": "FREEPORT", "addr": "1045 WEST STEPHENSON STREET", "zip": "61032", "fed_name": "FHN MEMORIAL HOSPITAL", "state": "IL", "fed_id": 140160, "lat": 41.925107, "lng": -87.647076, "name": "Children's Memorial Hospital"}
{"city": "PALOS HEIGHTS", "addr": "12251 SOUTH 80TH AVENUE", "zip": "60463", "fed_name": "PALOS COMMUNITY HOSPITAL", "state": "IL", "fed_id": 140062, "lat": 41.668287, "lng": -87.815933, "name": "Palos Community Hospital"}
{"city": "CHICAGO", "addr": "251 E HURON ST", "zip": "60611", "fed_name": "NORTHWESTERN MEMORIAL HOSPITAL", "state": "IL", "fed_id": 140281, "lat": 41.894623, "lng": -87.621524, "name": "Northwestern Memorial Hospital"}
{"city": "CHICAGO", "addr": "8012 SOUTH CRANDON AVENUE", "zip": "60617", "fed_name": "SOUTH SHORE HOSPITAL", "state": "IL", "fed_id": 140181, "lat": 41.749488, "lng": -87.5692, "name": "South Shore Hospital"}
{"city": "PEORIA", "addr": "5409 N KNOXVILLE AVE", "zip": "61614", "fed_name": "PROCTOR HOSPITAL", "state": "IL", "fed_id": 140013, "lat": 42.090228, "lng": -87.849209, "name": "Glenbrook Hospital"}
{"city": "ELGIN", "addr": "1425 NORTH RANDALL ROAD", "zip": "60123", "fed_name": "SHERMAN HOSPITAL", "state": "IL", "fed_id": 140030, "lat": 41.875442, "lng": -87.712192, "name": "Bethany Hospital"}
{"city": "CHICAGO", "addr": "5841 SOUTH MARYLAND", "zip": "60637", "fed_name": "THE UNIVERSITY OF CHICAGO MEDICAL CENTER", "state": "IL", "fed_id": 140088, "lat": 41.788321, "lng": -87.602431, "name": "University Of Chicago Medical Center"}
{"city": "CHICAGO", "addr": "3240 W FRANKLIN BLVD", "zip": "60624", "fed_name": "SACRED HEART HOSPITAL", "state": "IL", "fed_id": 140151, "lat": 41.890525, "lng": -87.708036, "name": "Sacred Heart Hospital"}
{"city": "CHICAGO", "addr": "2320 E 93RD ST", "zip": "60617", "fed_name": "ADVOCATE TRINITY HOSPITAL", "state": "IL", "fed_id": 140048, "lat": 41.726895, "lng": -87.566806, "name": "Trinity Hospital"}
{"city": "CHICAGO", "addr": "5025 N PAULINA STREET", "zip": "60640", "fed_name": "METHODIST HOSPITAL OF CHICAGO", "state": "IL", "fed_id": 140197, "lat": 41.802654, "lng": -87.613684, "name": "Provident Hospital of Cook County"}
{"city": "CHICAGO", "addr": "2875 WEST 19TH STREET", "zip": "60623", "fed_name": "SAINT ANTHONY HOSPITAL", "state": "IL", "fed_id": 140095, "lat": 41.855171, "lng": -87.698147, "name": "St. Anthony Hospital"}
{"city": "MAYWOOD", "addr": "2160 S 1ST AVENUE", "zip": "60153", "fed_name": "LOYOLA UNIVERSITY MEDICAL CENTER", "state": "IL", "fed_id": 140276, "lat": 41.86027, "lng": -87.8347, "name": "Loyola University Hospital"}
{"city": "HAZEL CREST", "addr": "17800 S KEDZIE AVE", "zip": "60429", "fed_name": "ADVOCATE SOUTH SUBURBAN HOSPITAL", "state": "IL", "fed_id": 140250, "lat": 41.566482, "lng": -87.694336, "name": "Advocate South Suburban Hospital"}
{"city": "CHICAGO", "addr": "326 W 64TH ST", "zip": "60621", "fed_name": "ST BERNARD HOSPITAL", "state": "IL", "fed_id": 140103, "lat": 42.007551, "lng": -88.151131, "name": "Streamwood Hospital"}
{"city": "PARK RIDGE", "addr": "1775 DEMPSTER ST", "zip": "60068", "fed_name": "ADVOCATE LUTHERAN GENERAL HOSPITAL", "state": "IL", "fed_id": 140223, "lat": 42.039719, "lng": -87.849801, "name": "Advocate Lutheran General Hospital"}
{"city": "NORMAL", "addr": "1304 FRANKLIN AVENUE", "zip": "61761", "fed_name": "BROMENN HEALTHCARE", "state": "IL", "fed_id": 140127, "lat": 41.785808, "lng": -87.916879, "name": "RML Health Providers Limited Partnership"}
{"city": "CHICAGO", "addr": "5025 N PAULINA STREET", "zip": "60640", "fed_name": "METHODIST HOSPITAL OF CHICAGO", "state": "IL", "fed_id": 140197, "lat": 41.961569, "lng": -87.692971, "name": "Kindred Hospital  Chicago North"}
{"city": "CHICAGO", "addr": "5025 N PAULINA STREET", "zip": "60640", "fed_name": "METHODIST HOSPITAL OF CHICAGO", "state": "IL", "fed_id": 140197, "lat": 41.907352, "lng": -87.890424, "name": "Kindred Hospital - Chicago Northlake"}
{"city": "CHICAGO", "addr": "15TH STREET AT CALIFORNIA", "zip": "60608", "fed_name": "MT SINAI HOSPITAL MEDICAL CENTER", "state": "IL", "fed_id": 140018, "lat": 41.841324, "lng": -87.613618, "name": "Michael Reese Hospital & Medical Center"}
{"city": "HOFFMAN ESTATES", "addr": "1555 N BARRINGTON RD", "zip": "60194", "fed_name": "ST ALEXIUS MEDICAL CENTER", "state": "IL", "fed_id": 140290, "lat": 42.051218, "lng": -88.144509, "name": "St. Alexius Medical Center"}
{"city": "LA GRANGE", "addr": "5101 S WILLOW SPRINGS RD", "zip": "60525", "fed_name": "ADVENTIST LA GRANGE MEMORIAL HOSPITAL", "state": "IL", "fed_id": 140065, "lat": 41.797346, "lng": -87.88847, "name": "Advocate LaGrange Memorial Hospital"}
{"city": "CHICAGO", "addr": "8012 SOUTH CRANDON AVENUE", "zip": "60617", "fed_name": "SOUTH SHORE HOSPITAL", "state": "IL", "fed_id": 140181, "lat": 41.890509, "lng": -87.720193, "name": "UHS Hartgrove  Hospital"}
{"city": "MORRIS", "addr": "150 W HIGH ST", "zip": "60450", "fed_name": "MORRIS HOSPITAL & HEALTHCARE CENTERS", "state": "IL", "fed_id": 140101, "lat": 41.522579, "lng": -87.713239, "name": "St. James Hospital  & Health Center"}
{"city": "HERRIN", "addr": "201 S 14TH ST", "zip": "62948", "fed_name": "HERRIN HOSPITAL", "state": "IL", "fed_id": 140011, "lat": 41.864561, "lng": -87.828686, "name": "Riveredge Hospital"}
{"city": "CHICAGO", "addr": "836 WEST WELLINGTON AVENUE", "zip": "60657", "fed_name": "ADVOCATE ILLINOIS MASONIC MEDICAL CENTER", "state": "IL", "fed_id": 140182, "lat": 41.936824, "lng": -87.651365, "name": "Advocate Illinois Masonic Medical Center"}
{"city": "LAKE FOREST", "addr": "660 N WESTMORELAND ROAD", "zip": "60045", "fed_name": "LAKE FOREST HOSPITAL", "state": "IL", "fed_id": 140130, "lat": 41.970285, "lng": -87.650566, "name": "Aurora Chicago Lakeshore Hospital"}
{"city": "BLUE ISLAND", "addr": "12935 S GREGORY", "zip": "60406", "fed_name": "METROSOUTH MEDICAL CENTER", "state": "IL", "fed_id": 140118, "lat": 41.658995, "lng": -87.678304, "name": "MetroSouth Medical Center"}
{"city": "CHICAGO", "addr": "4646 N MARINE DRIVE", "zip": "60640", "fed_name": "LOUIS A WEISS MEMORIAL HOSPITAL", "state": "IL", "fed_id": 140082, "lat": 41.966844, "lng": -87.649613, "name": "Louis A. Weiss Memorial Hospital"}
{"city": "HARVEY", "addr": "ONE INGALLS DRIVE", "zip": "60426", "fed_name": "INGALLS MEMORIAL HOSPITAL", "state": "IL", "fed_id": 140191, "lat": 41.832652, "lng": -87.792791, "name": "MacNeal Memorial Hospital"}
{"city": "CHICAGO", "addr": "5025 N PAULINA STREET", "zip": "60640", "fed_name": "METHODIST HOSPITAL OF CHICAGO", "state": "IL", "fed_id": 140197, "lat": 41.895483, "lng": -87.618307, "name": "Rehabilitation Institute of Chicago"}
{"city": "GALESBURG", "addr": "3333 NORTH SEMINARY", "zip": "61401", "fed_name": "ST MARY MEDICAL CENTER", "state": "IL", "fed_id": 140064, "lat": 42.044255, "lng": -87.879197, "name": "Maryville Academy / Scott A. Nolan Center"}
{"city": "CHICAGO", "addr": "3240 W FRANKLIN BLVD", "zip": "60624", "fed_name": "SACRED HEART HOSPITAL", "state": "IL", "fed_id": 140151, "lat": 41.940249, "lng": -87.728954, "name": "Kindred Chicago Central Hospital"}
{"city": "ELK GROVE VILLA", "addr": "800 W BIESTERFIELD RD", "zip": "60007", "fed_name": "ALEXIAN BROTHERS MEDICAL CENTER", "state": "IL", "fed_id": 140258, "lat": 42.054973, "lng": -88.135967, "name": "Alexian Brothers Behavioral Hospital"}
{"city": "CHICAGO", "addr": "5025 N PAULINA STREET", "zip": "60640", "fed_name": "METHODIST HOSPITAL OF CHICAGO", "state": "IL", "fed_id": 140197, "lat": 41.963824, "lng": -87.677154, "name": "Neurologic and Othopeadic Institute of Chicago"}
{"city": "HINSDALE", "addr": "120 NORTH OAK ST", "zip": "60521", "fed_name": "HINSDALE HOSPITAL", "state": "IL", "fed_id": 140122, "lat": 41.777373, "lng": -87.571379, "name": "LaRabida Children's Hospital"}
{"city": "PALOS HEIGHTS", "addr": "12251 SOUTH 80TH AVENUE", "zip": "60463", "fed_name": "PALOS COMMUNITY HOSPITAL", "state": "IL", "fed_id": 140062, "lat": 41.873725, "lng": -87.672685, "name": "Cook County Hospital"}
{"city": "CHICAGO", "addr": "1044 N FRANCISCO AVE", "zip": "60622", "fed_name": "NORWEGIAN-AMERICAN HOSPITAL", "state": "IL", "fed_id": 140206, "lat": 41.900805, "lng": -87.699686, "name": "Norwegian American Hospital"}
{"city": "PEORIA", "addr": "530 NE GLEN OAK AVE", "zip": "61637", "fed_name": "SAINT FRANCIS MEDICAL CENTER", "state": "IL", "fed_id": 140067, "lat": 41.86988, "lng": -87.677185, "name": "Jesse Grown Depart. of Veteran's Affairs Medical Center"}
{"city": "MOUNT VERNON", "addr": "605 N 12TH STREET", "zip": "62864", "fed_name": "GOOD SAMARITAN REGIONAL HLTH CENTER", "state": "IL", "fed_id": 140046, "lat": 41.955223, "lng": -87.800206, "name": "Chicago Read Mental Health Center"}
{"city": "HERRIN", "addr": "201 S 14TH ST", "zip": "62948", "fed_name": "HERRIN HOSPITAL", "state": "IL", "fed_id": 140011, "lat": 41.919969, "lng": -87.793157, "name": "Shriners Hospitals for Children"}
{"city": "LAKE FOREST", "addr": "660 N WESTMORELAND ROAD", "zip": "60045", "fed_name": "LAKE FOREST HOSPITAL", "state": "IL", "fed_id": 140130, "lat": 41.993436, "lng": -87.655817, "name": "Kindred-Lakeshore"}
